{
  "type": "FeatureCollection",
  "name": "ТЕСТОВЫЕ объекты (примерные координаты, заменить слоем из QGIS)",
  "features": [
    { "type": "Feature", "properties": { "title": "Стела «Тюмень — победителям»", "category": "patriotism", "description": "Тестовое описание. Памятный знак в честь тюменцев — участников Великой Отечественной войны.", "address": "ул. Республики, Тюмень" }, "geometry": { "type": "Point", "coordinates": [65.53, 57.16] } },
    { "type": "Feature", "properties": { "title": "Памятник воинам-интернационалистам", "category": "patriotism", "description": "Тестовое описание. Мемориал памяти воинов, исполнявших интернациональный долг.", "address": "сквер Воинов-интернационалистов, Тюмень" }, "geometry": { "type": "Point", "coordinates": [65.585, 57.15] } },
    { "type": "Feature", "properties": { "title": "Памятник пограничникам", "category": "patriotism", "description": "Тестовое описание. Памятный знак защитникам рубежей Отечества.", "address": "ул. Ватутина, Тюмень" }, "geometry": { "type": "Point", "coordinates": [65.47, 57.18] } },
    { "type": "Feature", "properties": { "title": "Вечный огонь на площади Памяти", "category": "memory", "description": "Тестовое описание. Мемориальный комплекс с Вечным огнём в честь погибших в годы Великой Отечественной войны.", "address": "пл. Памяти, Тюмень" }, "geometry": { "type": "Point", "coordinates": [65.567, 57.136] } },
    { "type": "Feature", "properties": { "title": "Памятник труженикам тыла", "category": "memory", "description": "Тестовое описание. Посвящён трудовому подвигу тюменцев в тылу.", "address": "ул. Мельникайте, Тюмень" }, "geometry": { "type": "Point", "coordinates": [65.545, 57.148] } },
    { "type": "Feature", "properties": { "title": "Мемориал жертвам политических репрессий", "category": "memory", "description": "Тестовое описание. Место памяти и скорби.", "address": "Затюменский парк, Тюмень" }, "geometry": { "type": "Point", "coordinates": [65.49, 57.14] } },
    { "type": "Feature", "properties": { "title": "Памятник учителю", "category": "dignity", "description": "Тестовое описание. Дань уважения труду педагогов.", "address": "ул. Володарского, Тюмень" }, "geometry": { "type": "Point", "coordinates": [65.556, 57.157] } },
    { "type": "Feature", "properties": { "title": "Сквер сибирских кошек", "category": "dignity", "description": "Тестовое описание. Память о кошках, спасших блокадный Ленинград от грызунов.", "address": "ул. Первомайская, Тюмень" }, "geometry": { "type": "Point", "coordinates": [65.535, 57.153] } },
    { "type": "Feature", "properties": { "title": "Памятник медицинским работникам", "category": "dignity", "description": "Тестовое описание. В честь самоотверженности врачей и медсестёр.", "address": "ул. Мельникайте, Тюмень" }, "geometry": { "type": "Point", "coordinates": [65.54, 57.08] } },
    { "type": "Feature", "properties": { "title": "Скульптура «Мама»", "category": "continuity", "description": "Тестовое описание. Символ материнства и семейных ценностей.", "address": "Цветной бульвар, Тюмень" }, "geometry": { "type": "Point", "coordinates": [65.59, 57.13] } },
    { "type": "Feature", "properties": { "title": "Аллея выпускников", "category": "continuity", "description": "Тестовое описание. Заложена выпускниками тюменских школ и вузов.", "address": "ул. Широтная, Тюмень" }, "geometry": { "type": "Point", "coordinates": [65.55, 57.09] } },
    { "type": "Feature", "properties": { "title": "Памятник железнодорожникам", "category": "continuity", "description": "Тестовое описание. В честь поколений тюменских железнодорожников.", "address": "ул. Первомайская, Тюмень" }, "geometry": { "type": "Point", "coordinates": [65.61, 57.155] } }
  ]
}
